{
  "type": "FeatureCollection",
  "features": [
    { "type": "Feature", "properties": { "amenity": "fire_station", "name": "İstanbul İtfaiyesi - Fatih Grubu", "phone": "0212 521 11 10" }, "geometry": { "type": "Point", "coordinates": [ 28.951, 41.018 ] } },
    { "type": "Feature", "properties": { "amenity": "fire_station", "name": "Bursa İtfaiyesi - Osmangazi", "phone": "0224 222 11 10" }, "geometry": { "type": "Point", "coordinates": [ 29.06, 40.183 ] } },
    { "type": "Feature", "properties": { "amenity": "fire_station", "name": "Kocaeli İtfaiyesi - İzmit", "phone": "0262 333 11 10" }, "geometry": { "type": "Point", "coordinates": [ 29.916, 40.766 ] } },
    { "type": "Feature", "properties": { "amenity": "fire_station", "name": "Edirne İtfaiyesi", "phone": "0284 212 11 10" }, "geometry": { "type": "Point", "coordinates": [ 26.55, 41.683 ] } },
    { "type": "Feature", "properties": { "amenity": "fire_station", "name": "Tekirdağ İtfaiyesi", "phone": "0282 261 11 10" }, "geometry": { "type": "Point", "coordinates": [ 27.516, 40.983 ] } },
    { "type": "Feature", "properties": { "natural": "water", "name": "Sapanca Gölü", "water": "lake" }, "geometry": { "type": "Point", "coordinates": [ 30.25, 40.716 ] } },
    { "type": "Feature", "properties": { "natural": "water", "name": "Büyükçekmece Gölü", "water": "lake" }, "geometry": { "type": "Point", "coordinates": [ 28.55, 41.05 ] } },
    { "type": "Feature", "properties": { "natural": "water", "name": "İznik Gölü", "water": "lake" }, "geometry": { "type": "Point", "coordinates": [ 29.5, 40.433 ] } },
    { "type": "Feature", "properties": { "natural": "water", "name": "Terkos Gölü (Durusu)", "water": "lake" }, "geometry": { "type": "Point", "coordinates": [ 28.599, 41.32 ] } },
    { "type": "Feature", "properties": { "natural": "water", "name": "Ömerli Barajı", "water": "reservoir" }, "geometry": { "type": "Point", "coordinates": [ 29.35, 41.05 ] } },
    { "type": "Feature", "properties": { "amenity": "fire_station", "name": "İzmir İtfaiyesi - Konak", "phone": "0232 444 11 10" }, "geometry": { "type": "Point", "coordinates": [ 27.143, 38.419 ] } },
    { "type": "Feature", "properties": { "amenity": "fire_station", "name": "Muğla İtfaiyesi - Menteşe", "phone": "0252 214 11 10" }, "geometry": { "type": "Point", "coordinates": [ 28.365, 37.215 ] } },
    { "type": "Feature", "properties": { "amenity": "fire_station", "name": "Aydın İtfaiyesi", "phone": "0256 225 11 10" }, "geometry": { "type": "Point", "coordinates": [ 27.845, 37.838 ] } },
    { "type": "Feature", "properties": { "amenity": "fire_station", "name": "Denizli İtfaiyesi", "phone": "0258 265 11 10" }, "geometry": { "type": "Point", "coordinates": [ 29.088, 37.773 ] } },
    { "type": "Feature", "properties": { "amenity": "fire_station", "name": "Manisa İtfaiyesi", "phone": "0236 231 11 10" }, "geometry": { "type": "Point", "coordinates": [ 27.426, 38.614 ] } },
    { "type": "Feature", "properties": { "natural": "water", "name": "Bafa Gölü", "water": "lake" }, "geometry": { "type": "Point", "coordinates": [ 27.416, 37.5 ] } },
    { "type": "Feature", "properties": { "natural": "water", "name": "Marmara Gölü", "water": "lake" }, "geometry": { "type": "Point", "coordinates": [ 28.05, 38.616 ] } },
    { "type": "Feature", "properties": { "natural": "water", "name": "Adıgüzel Barajı", "water": "reservoir" }, "geometry": { "type": "Point", "coordinates": [ 29.416, 38.25 ] } },
    { "type": "Feature", "properties": { "natural": "water", "name": "Demirköprü Barajı", "water": "reservoir" }, "geometry": { "type": "Point", "coordinates": [ 28.3, 38.716 ] } },
    { "type": "Feature", "properties": { "amenity": "fire_station", "name": "Antalya İtfaiyesi - Muratpaşa", "phone": "0242 321 11 10" }, "geometry": { "type": "Point", "coordinates": [ 30.705, 36.89 ] } },
    { "type": "Feature", "properties": { "amenity": "fire_station", "name": "Adana İtfaiyesi - Seyhan", "phone": "0322 352 11 10" }, "geometry": { "type": "Point", "coordinates": [ 35.33, 37.0 ] } },
    { "type": "Feature", "properties": { "amenity": "fire_station", "name": "Mersin İtfaiyesi", "phone": "0324 234 11 10" }, "geometry": { "type": "Point", "coordinates": [ 34.616, 36.8 ] } },
    { "type": "Feature", "properties": { "amenity": "fire_station", "name": "Isparta İtfaiyesi", "phone": "0246 228 11 10" }, "geometry": { "type": "Point", "coordinates": [ 30.55, 37.766 ] } },
    { "type": "Feature", "properties": { "amenity": "fire_station", "name": "Hatay İtfaiyesi", "phone": "0326 214 11 10" }, "geometry": { "type": "Point", "coordinates": [ 36.166, 36.2 ] } },
    { "type": "Feature", "properties": { "natural": "water", "name": "Beyşehir Gölü", "water": "lake" }, "geometry": { "type": "Point", "coordinates": [ 31.583, 37.683 ] } },
    { "type": "Feature", "properties": { "natural": "water", "name": "Eğirdir Gölü", "water": "lake" }, "geometry": { "type": "Point", "coordinates": [ 30.866, 38.066 ] } },
    { "type": "Feature", "properties": { "natural": "water", "name": "Seyhan Baraj Gölü", "water": "reservoir" }, "geometry": { "type": "Point", "coordinates": [ 35.35, 37.066 ] } },
    { "type": "Feature", "properties": { "natural": "water", "name": "Aslantaş Barajı", "water": "reservoir" }, "geometry": { "type": "Point", "coordinates": [ 36.233, 37.316 ] } },
    { "type": "Feature", "properties": { "amenity": "fire_station", "name": "Ankara İtfaiyesi - Merkez", "phone": "0312 341 11 10" }, "geometry": { "type": "Point", "coordinates": [ 32.855, 39.932 ] } },
    { "type": "Feature", "properties": { "amenity": "fire_station", "name": "Konya İtfaiyesi", "phone": "0332 248 11 10" }, "geometry": { "type": "Point", "coordinates": [ 32.484, 37.871 ] } },
    { "type": "Feature", "properties": { "amenity": "fire_station", "name": "Kayseri İtfaiyesi", "phone": "0352 336 11 10" }, "geometry": { "type": "Point", "coordinates": [ 35.483, 38.733 ] } },
    { "type": "Feature", "properties": { "amenity": "fire_station", "name": "Eskişehir İtfaiyesi", "phone": "0222 220 11 10" }, "geometry": { "type": "Point", "coordinates": [ 30.516, 39.783 ] } },
    { "type": "Feature", "properties": { "amenity": "fire_station", "name": "Sivas İtfaiyesi", "phone": "0346 221 11 10" }, "geometry": { "type": "Point", "coordinates": [ 37.016, 39.75 ] } },
    { "type": "Feature", "properties": { "natural": "water", "name": "Tuz Gölü", "water": "lake" }, "geometry": { "type": "Point", "coordinates": [ 33.333, 38.75 ] } },
    { "type": "Feature", "properties": { "natural": "water", "name": "Hirfanlı Barajı", "water": "reservoir" }, "geometry": { "type": "Point", "coordinates": [ 33.516, 39.183 ] } },
    { "type": "Feature", "properties": { "natural": "water", "name": "Kesikköprü Barajı", "water": "reservoir" }, "geometry": { "type": "Point", "coordinates": [ 33.45, 39.433 ] } },
    { "type": "Feature", "properties": { "natural": "water", "name": "Sarıyar Barajı", "water": "reservoir" }, "geometry": { "type": "Point", "coordinates": [ 31.433, 40.033 ] } },
    { "type": "Feature", "properties": { "amenity": "fire_station", "name": "Trabzon İtfaiyesi", "phone": "0462 321 11 10" }, "geometry": { "type": "Point", "coordinates": [ 39.716, 41.002 ] } },
    { "type": "Feature", "properties": { "amenity": "fire_station", "name": "Samsun İtfaiyesi", "phone": "0362 431 11 10" }, "geometry": { "type": "Point", "coordinates": [ 36.333, 41.283 ] } },
    { "type": "Feature", "properties": { "amenity": "fire_station", "name": "Zonguldak İtfaiyesi", "phone": "0372 253 11 10" }, "geometry": { "type": "Point", "coordinates": [ 31.8, 41.45 ] } },
    { "type": "Feature", "properties": { "amenity": "fire_station", "name": "Bolu İtfaiyesi", "phone": "0374 215 11 10" }, "geometry": { "type": "Point", "coordinates": [ 31.6, 40.733 ] } },
    { "type": "Feature", "properties": { "natural": "water", "name": "Uzungöl", "water": "lake" }, "geometry": { "type": "Point", "coordinates": [ 40.3, 40.616 ] } },
    { "type": "Feature", "properties": { "natural": "water", "name": "Abant Gölü", "water": "lake" }, "geometry": { "type": "Point", "coordinates": [ 31.283, 40.6 ] } },
    { "type": "Feature", "properties": { "natural": "water", "name": "Hasan Uğurlu Barajı", "water": "reservoir" }, "geometry": { "type": "Point", "coordinates": [ 36.933, 40.85 ] } },
    { "type": "Feature", "properties": { "natural": "water", "name": "Altınkaya Barajı", "water": "reservoir" }, "geometry": { "type": "Point", "coordinates": [ 35.983, 41.35 ] } },
    { "type": "Feature", "properties": { "amenity": "fire_station", "name": "Erzurum İtfaiyesi", "phone": "0442 233 11 10" }, "geometry": { "type": "Point", "coordinates": [ 41.27, 39.9 ] } },
    { "type": "Feature", "properties": { "amenity": "fire_station", "name": "Malatya İtfaiyesi", "phone": "0422 323 11 10" }, "geometry": { "type": "Point", "coordinates": [ 38.316, 38.35 ] } },
    { "type": "Feature", "properties": { "amenity": "fire_station", "name": "Van İtfaiyesi", "phone": "0432 215 11 10" }, "geometry": { "type": "Point", "coordinates": [ 43.383, 38.5 ] } },
    { "type": "Feature", "properties": { "amenity": "fire_station", "name": "Elazığ İtfaiyesi", "phone": "0424 237 11 10" }, "geometry": { "type": "Point", "coordinates": [ 39.216, 38.683 ] } },
    { "type": "Feature", "properties": { "natural": "water", "name": "Van Gölü", "water": "lake" }, "geometry": { "type": "Point", "coordinates": [ 43.033, 38.5 ] } },
    { "type": "Feature", "properties": { "natural": "water", "name": "Keban Barajı", "water": "reservoir" }, "geometry": { "type": "Point", "coordinates": [ 38.756, 38.802 ] } },
    { "type": "Feature", "properties": { "natural": "water", "name": "Çıldır Gölü", "water": "lake" }, "geometry": { "type": "Point", "coordinates": [ 43.25, 41.016 ] } },
    { "type": "Feature", "properties": { "natural": "water", "name": "Hazar Gölü", "water": "lake" }, "geometry": { "type": "Point", "coordinates": [ 39.433, 38.483 ] } },
    { "type": "Feature", "properties": { "amenity": "fire_station", "name": "Gaziantep İtfaiyesi", "phone": "0342 323 11 10" }, "geometry": { "type": "Point", "coordinates": [ 37.383, 37.066 ] } },
    { "type": "Feature", "properties": { "amenity": "fire_station", "name": "Diyarbakır İtfaiyesi", "phone": "0412 228 11 10" }, "geometry": { "type": "Point", "coordinates": [ 40.233, 37.916 ] } },
    { "type": "Feature", "properties": { "amenity": "fire_station", "name": "Şanlıurfa İtfaiyesi", "phone": "0414 313 11 10" }, "geometry": { "type": "Point", "coordinates": [ 38.794, 37.158 ] } },
    { "type": "Feature", "properties": { "natural": "water", "name": "Birecik Barajı", "water": "reservoir" }, "geometry": { "type": "Point", "coordinates": [ 37.983, 37.033 ] } },
    { "type": "Feature", "properties": { "natural": "water", "name": "Kralkızı Barajı", "water": "reservoir" }, "geometry": { "type": "Point", "coordinates": [ 40.35, 38.333 ] } }
  ]
}